[
  {
    "text": "BLR",
    "size": 1.5,
    "country": "India",
    "city": "Bangalore (HQ)",
    "lat": "12.9716",
    "lng": "77.5946",
    "type": "headquarters"
  },
  {
    "text": "HYD",
    "size": 1.2,
    "country": "India",
    "city": "Hyderabad",
    "lat": "17.3850",
    "lng": "78.4867",
    "type": "office"
  },
  {
    "text": "BOM",
    "size": 1.2,
    "country": "India",
    "city": "Mumbai",
    "lat": "19.0760",
    "lng": "72.8777",
    "type": "office"
  },
  {
    "text": "DEL",
    "size": 1.2,
    "country": "India",
    "city": "Delhi",
    "lat": "28.7041",
    "lng": "77.1025",
    "type": "office"
  },
  {
    "text": "SIN",
    "size": 1.3,
    "country": "Singapore",
    "city": "Singapore",
    "lat": "1.3521",
    "lng": "103.8198",
    "type": "collaboration"
  },
  {
    "text": "DXB",
    "size": 1.1,
    "country": "UAE",
    "city": "Dubai",
    "lat": "25.2048",
    "lng": "55.2708",
    "type": "collaboration"
  },
  {
    "text": "KUL",
    "size": 1.1,
    "country": "Malaysia",
    "city": "Kuala Lumpur",
    "lat": "3.1390",
    "lng": "101.6869",
    "type": "collaboration"
  },
  {
    "text": "BKK",
    "size": 1.1,
    "country": "Thailand",
    "city": "Bangkok",
    "lat": "13.7563",
    "lng": "100.5018",
    "type": "collaboration"
  },
  {
    "text": "JKT",
    "size": 1.1,
    "country": "Indonesia",
    "city": "Jakarta",
    "lat": "-6.2088",
    "lng": "106.8456",
    "type": "collaboration"
  },
  {
    "text": "MNL",
    "size": 1.1,
    "country": "Philippines",
    "city": "Manila",
    "lat": "14.5995",
    "lng": "120.9842",
    "type": "collaboration"
  },
  {
    "text": "HKG",
    "size": 1.1,
    "country": "Hong Kong",
    "city": "Hong Kong",
    "lat": "22.3193",
    "lng": "114.1694",
    "type": "collaboration"
  }
]